{
  "venues": [
    {
      "name": "Citrus Bowl",
      "city": "Orlando",
      "ground_aliases": [
        "Citrus Bowl, Orlando"
      ],
      "latitude": 28.53888889,
      "longitude": -81.40277778,
      "coordinate_source": "https://en.wikipedia.org/wiki/Camping_World_Stadium",
      "coordinate_source_title": "Camping World Stadium",
      "match_score": 0,
      "coordinate_status": "candidate"
    },
    {
      "name": "Cotton Bowl",
      "city": "Dallas",
      "ground_aliases": [
        "Cotton Bowl, Dallas"
      ],
      "latitude": 32.77944444,
      "longitude": -96.75972222,
      "coordinate_source": "https://en.wikipedia.org/wiki/Cotton_Bowl_(stadium)",
      "coordinate_source_title": "Cotton Bowl (stadium)",
      "match_score": 20,
      "coordinate_status": "candidate"
    },
    {
      "name": "Foxboro Stadium",
      "city": "Foxborough",
      "ground_aliases": [
        "Foxboro Stadium, Foxborough"
      ],
      "latitude": 42.09277778,
      "longitude": -71.2675,
      "coordinate_source": "https://en.wikipedia.org/wiki/Foxboro_Stadium",
      "coordinate_source_title": "Foxboro Stadium",
      "match_score": 15,
      "coordinate_status": "candidate"
    },
    {
      "name": "Giants Stadium",
      "city": "East Rutherford",
      "ground_aliases": [
        "Giants Stadium, East Rutherford"
      ],
      "latitude": 40.8126637,
      "longitude": -74.0856264,
      "coordinate_source": "https://www.openstreetmap.org/w/230056154",
      "coordinate_source_title": "New York Giants Main Offices",
      "match_score": 10,
      "coordinate_status": "candidate"
    },
    {
      "name": "Pontiac Silverdome",
      "city": "Pontiac",
      "ground_aliases": [
        "Pontiac Silverdome, Pontiac"
      ],
      "latitude": 42.64583333,
      "longitude": -83.255,
      "coordinate_source": "https://en.wikipedia.org/wiki/Pontiac_Silverdome",
      "coordinate_source_title": "Pontiac Silverdome",
      "match_score": 25,
      "coordinate_status": "candidate"
    },
    {
      "name": "RFK Stadium",
      "city": "Washington",
      "ground_aliases": [
        "RFK Stadium, Washington"
      ],
      "latitude": 38.89,
      "longitude": -76.9719,
      "coordinate_source": "https://en.wikipedia.org/wiki/New_Stadium_at_RFK_Campus",
      "coordinate_source_title": "New Stadium at RFK Campus",
      "match_score": 10,
      "coordinate_status": "candidate"
    },
    {
      "name": "Rose Bowl",
      "city": "Pasadena",
      "ground_aliases": [
        "Rose Bowl, Pasadena"
      ],
      "latitude": 34.161,
      "longitude": -118.168,
      "coordinate_source": "https://en.wikipedia.org/wiki/Rose_Bowl_(stadium)",
      "coordinate_source_title": "Rose Bowl (stadium)",
      "match_score": 20,
      "coordinate_status": "candidate"
    },
    {
      "name": "Soldier Field",
      "city": "Chicago",
      "ground_aliases": [
        "Soldier Field, Chicago"
      ],
      "latitude": 41.8623,
      "longitude": -87.6167,
      "coordinate_source": "https://en.wikipedia.org/wiki/Soldier_Field",
      "coordinate_source_title": "Soldier Field",
      "match_score": 25,
      "coordinate_status": "candidate"
    },
    {
      "name": "Stanford Stadium",
      "city": "Stanford",
      "ground_aliases": [
        "Stanford Stadium, Stanford"
      ],
      "latitude": 37.43444444,
      "longitude": -122.16111111,
      "coordinate_source": "https://en.wikipedia.org/wiki/Stanford_Stadium",
      "coordinate_source_title": "Stanford Stadium",
      "match_score": 15,
      "coordinate_status": "candidate"
    }
  ]
}
