{
  "venues": [
    {
      "name": "Parc Lescure",
      "modern_name": "Stade Chaban-Delmas",
      "city": "Bordeaux",
      "ground_aliases": [
        "Parc Lescure, Bordeaux"
      ],
      "latitude": 44.82917,
      "longitude": -0.598333,
      "coordinate_source": "https://en.wikipedia.org/wiki/Stade_Chaban-Delmas",
      "coordinate_status": "verified"
    },
    {
      "name": "Parc des Princes",
      "city": "Paris",
      "ground_aliases": [
        "Parc des Princes, Paris"
      ],
      "latitude": 48.841363,
      "longitude": 2.253069,
      "coordinate_source": "https://fr.wikipedia.org/wiki/Parc_des_Princes",
      "coordinate_status": "verified"
    },
    {
      "name": "Stade Félix Bollaert",
      "city": "Lens",
      "ground_aliases": [
        "Stade Félix Bollaert, Lens"
      ],
      "latitude": 50.432778,
      "longitude": 2.815,
      "coordinate_source": "https://en.wikipedia.org/wiki/Stade_Bollaert-Delelis",
      "coordinate_source_title": "Stade Bollaert-Delelis",
      "coordinate_status": "verified"
    },
    {
      "name": "Stade Geoffroy-Guichard",
      "city": "Saint-Étienne",
      "ground_aliases": [
        "Stade Geoffroy-Guichard, Saint-Étienne"
      ],
      "latitude": 45.46083333,
      "longitude": 4.39027778,
      "coordinate_source": "https://en.wikipedia.org/wiki/Stade_Geoffroy-Guichard",
      "coordinate_source_title": "Stade Geoffroy-Guichard",
      "match_score": 25,
      "coordinate_status": "verified",
      "coordinate_review": "Manual source-title and location review"
    },
    {
      "name": "Stade Gerland",
      "city": "Lyon",
      "ground_aliases": [
        "Stade Gerland, Lyon"
      ],
      "latitude": 45.72375,
      "longitude": 4.8324,
      "coordinate_source": "https://en.wikipedia.org/wiki/Stade_de_Gerland",
      "coordinate_source_title": "Stade de Gerland",
      "coordinate_status": "verified"
    },
    {
      "name": "Stade Vélodrome",
      "city": "Marseille",
      "ground_aliases": [
        "Stade Vélodrome, Marseille"
      ],
      "latitude": 43.269722,
      "longitude": 5.395833,
      "coordinate_source": "https://en.wikipedia.org/wiki/Stade_V%C3%A9lodrome",
      "coordinate_status": "verified"
    },
    {
      "name": "Stade de France",
      "city": "Saint-Denis",
      "ground_aliases": [
        "Stade de France, Saint-Denis"
      ],
      "latitude": 48.9356,
      "longitude": 2.3539,
      "coordinate_source": "https://en.wikipedia.org/wiki/Saint-Denis,_Seine-Saint-Denis",
      "coordinate_source_title": "Saint-Denis, Seine-Saint-Denis",
      "match_score": 20,
      "coordinate_status": "verified",
      "coordinate_review": "Manual source-title and location review"
    },
    {
      "name": "Stade de Toulouse",
      "city": "Toulouse",
      "ground_aliases": [
        "Stade de Toulouse, Toulouse"
      ],
      "latitude": 43.583333,
      "longitude": 1.434167,
      "coordinate_source": "https://en.wikipedia.org/wiki/Stadium_de_Toulouse",
      "coordinate_source_title": "Stadium de Toulouse",
      "coordinate_status": "verified"
    },
    {
      "name": "Stade de la Beaujoire",
      "city": "Nantes",
      "ground_aliases": [
        "Stade de la Beaujoire, Nantes"
      ],
      "latitude": 47.255556,
      "longitude": -1.525278,
      "coordinate_source": "https://en.wikipedia.org/wiki/Stade_de_la_Beaujoire",
      "coordinate_source_title": "Stade de la Beaujoire",
      "coordinate_status": "verified"
    },
    {
      "name": "Stade de la Mosson",
      "city": "Montpellier",
      "ground_aliases": [
        "Stade de la Mosson, Montpellier"
      ],
      "latitude": 43.62222222,
      "longitude": 3.81194444,
      "coordinate_source": "https://en.wikipedia.org/wiki/Stade_de_la_Mosson",
      "coordinate_source_title": "Stade de la Mosson",
      "match_score": 25,
      "coordinate_status": "verified",
      "coordinate_review": "Manual source-title and location review"
    }
  ]
}
