{
  "venues": [
    {
      "name": "Parc Lescure",
      "modern_name": "Stade Chaban-Delmas",
      "city": "Bordeaux",
      "ground_aliases": [
        "Parc Lescure, Bordeaux"
      ],
      "latitude": 44.82917,
      "longitude": -0.598333,
      "coordinate_source": "https://en.wikipedia.org/wiki/Stade_Chaban-Delmas"
    },
    {
      "name": "Parc des Princes",
      "city": "Paris",
      "ground_aliases": [
        "Parc des Princes, Paris"
      ],
      "latitude": 48.841363,
      "longitude": 2.253069,
      "coordinate_source": "https://fr.wikipedia.org/wiki/Parc_des_Princes"
    },
    {
      "name": "Stade Geoffroy-Guichard",
      "city": "Saint-Étienne",
      "ground_aliases": [
        "Stade Geoffroy-Guichard, Saint-Étienne"
      ],
      "latitude": 45.46083333,
      "longitude": 4.39027778,
      "coordinate_source": "https://en.wikipedia.org/wiki/Stade_Geoffroy-Guichard",
      "coordinate_source_title": "Stade Geoffroy-Guichard",
      "match_score": 15
    },
    {
      "name": "Stade Vélodrome",
      "city": "Marseille",
      "ground_aliases": [
        "Stade Vélodrome, Marseille"
      ],
      "latitude": 43.269722,
      "longitude": 5.395833,
      "coordinate_source": "https://en.wikipedia.org/wiki/Stade_V%C3%A9lodrome"
    },
    {
      "name": "Stade de France",
      "city": "Saint-Denis",
      "ground_aliases": [
        "Stade de France, Saint-Denis"
      ],
      "latitude": 48.9244,
      "longitude": 2.36,
      "coordinate_source": "https://en.wikipedia.org/wiki/Stade_de_France",
      "coordinate_source_title": "Stade de France",
      "match_score": 15
    },
    {
      "name": "Stade de la Mosson",
      "city": "Montpellier",
      "ground_aliases": [
        "Stade de la Mosson, Montpellier"
      ],
      "latitude": 43.62222222,
      "longitude": 3.81194444,
      "coordinate_source": "https://en.wikipedia.org/wiki/Stade_de_la_Mosson",
      "coordinate_source_title": "Stade de la Mosson",
      "match_score": 15
    }
  ]
}
