{
  "venues": [
    {
      "name": "Ekaterinburg Arena",
      "city": "Ekaterinburg",
      "ground_aliases": [
        "Ekaterinburg Arena, Ekaterinburg"
      ],
      "latitude": 56.8325,
      "longitude": 60.573611,
      "coordinate_source": "https://github.com/openfootball/worldcup.json/blob/master/2018/worldcup.stadiums.json",
      "coordinate_source_title": "Central Stadium (Ekaterinburg Arena)",
      "coordinate_status": "source"
    },
    {
      "name": "Fisht Stadium",
      "city": "Sochi",
      "ground_aliases": [
        "Fisht Stadium, Sochi"
      ],
      "latitude": 43.402222,
      "longitude": 39.956111,
      "coordinate_source": "https://github.com/openfootball/worldcup.json/blob/master/2018/worldcup.stadiums.json",
      "coordinate_source_title": "Fisht Olympic Stadium (Fisht Stadium)",
      "coordinate_status": "source"
    },
    {
      "name": "Kaliningrad Stadium",
      "city": "Kaliningrad",
      "ground_aliases": [
        "Kaliningrad Stadium, Kaliningrad"
      ],
      "latitude": 54.698055555555555,
      "longitude": 20.53388888888889,
      "coordinate_source": "https://github.com/openfootball/worldcup.json/blob/master/2018/worldcup.stadiums.json",
      "coordinate_status": "source"
    },
    {
      "name": "Kazan Arena",
      "city": "Kazan",
      "ground_aliases": [
        "Kazan Arena, Kazan"
      ],
      "latitude": 55.821111111111115,
      "longitude": 49.16083333333333,
      "coordinate_source": "https://github.com/openfootball/worldcup.json/blob/master/2018/worldcup.stadiums.json",
      "coordinate_status": "source"
    },
    {
      "name": "Luzhniki Stadium",
      "city": "Moscow (1)",
      "ground_aliases": [
        "Luzhniki Stadium, Moscow",
        "Luzhniki Stadium, Moscow (1)"
      ],
      "latitude": 55.715833333333336,
      "longitude": 37.55361111111111,
      "coordinate_source": "https://github.com/openfootball/worldcup.json/blob/master/2018/worldcup.stadiums.json",
      "coordinate_status": "source"
    },
    {
      "name": "Mordovia Arena",
      "city": "Saransk",
      "ground_aliases": [
        "Mordovia Arena, Saransk"
      ],
      "latitude": 54.18277777777777,
      "longitude": 45.20138888888889,
      "coordinate_source": "https://github.com/openfootball/worldcup.json/blob/master/2018/worldcup.stadiums.json",
      "coordinate_status": "source"
    },
    {
      "name": "Nizhny Novgorod Stadium",
      "city": "Nizhny Novgorod",
      "ground_aliases": [
        "Nizhny Novgorod Stadium, Nizhny Novgorod"
      ],
      "latitude": 56.337500000000006,
      "longitude": 43.96333333333334,
      "coordinate_source": "https://github.com/openfootball/worldcup.json/blob/master/2018/worldcup.stadiums.json",
      "coordinate_status": "source"
    },
    {
      "name": "Rostov Arena",
      "city": "Rostov-on-Don",
      "ground_aliases": [
        "Rostov Arena, Rostov-on-Don"
      ],
      "latitude": 47.20944444444445,
      "longitude": 39.73777777777778,
      "coordinate_source": "https://github.com/openfootball/worldcup.json/blob/master/2018/worldcup.stadiums.json",
      "coordinate_status": "source"
    },
    {
      "name": "Saint Petersburg Stadium",
      "city": "Saint Petersburg",
      "ground_aliases": [
        "Saint Petersburg Stadium, Saint Petersburg",
        "Saint Petersburg Stadium, St. Petersburg"
      ],
      "latitude": 59.973056,
      "longitude": 30.220556,
      "coordinate_source": "https://github.com/openfootball/worldcup.json/blob/master/2018/worldcup.stadiums.json",
      "coordinate_source_title": "Krestovsky Stadium (Saint Petersburg Stadium)",
      "coordinate_status": "source"
    },
    {
      "name": "Saint Petersburg Stadium",
      "city": "Saint Petersburg",
      "ground_aliases": [
        "Saint Petersburg Stadium, Saint Petersburg",
        "Saint Petersburg Stadium, St. Petersburg"
      ],
      "latitude": 59.973056,
      "longitude": 30.220556,
      "coordinate_source": "https://github.com/openfootball/worldcup.json/blob/master/2018/worldcup.stadiums.json",
      "coordinate_source_title": "Krestovsky Stadium (Saint Petersburg Stadium)",
      "coordinate_status": "source"
    },
    {
      "name": "Samara Arena",
      "city": "Samara",
      "ground_aliases": [
        "Samara Arena, Samara"
      ],
      "latitude": 53.27777777777778,
      "longitude": 50.23722222222222,
      "coordinate_source": "https://github.com/openfootball/worldcup.json/blob/master/2018/worldcup.stadiums.json",
      "coordinate_status": "source"
    },
    {
      "name": "Spartak Stadium",
      "city": "Moscow",
      "ground_aliases": [
        "Spartak Stadium, Moscow"
      ],
      "latitude": 55.817861,
      "longitude": 37.44025,
      "coordinate_source": "https://github.com/openfootball/worldcup.json/blob/master/2018/worldcup.stadiums.json",
      "coordinate_source_title": "Otkritie Arena (Spartak Stadium)",
      "coordinate_status": "source"
    },
    {
      "name": "Volgograd Arena",
      "city": "Volgograd",
      "ground_aliases": [
        "Volgograd Arena, Volgograd"
      ],
      "latitude": 48.73444444444444,
      "longitude": 44.54861111111111,
      "coordinate_source": "https://github.com/openfootball/worldcup.json/blob/master/2018/worldcup.stadiums.json",
      "coordinate_status": "source"
    }
  ]
}
